[
  {
    "heroes": [
      253
    ],
    "id": 0,
    "lat": 32.44873,
    "lon": -99.73314,
    "name": "Abilene"
  },
  {
    "heroes": [
      210
    ],
    "id": 1,
    "lat": 33.10317,
    "lon": -96.67055,
    "name": "Allen"
  },
  {
    "heroes": [
      84,
      301
    ],
    "id": 2,
    "lat": 35.22199,
    "lon": -101.83129,
    "name": "Amarillo"
  },
  {
    "heroes": [
      45
    ],
    "id": 3,
    "lat": 32.73568,
    "lon": -97.10806,
    "name": "Arlington"
  },
  {
    "heroes": [
      141
    ],
    "id": 4,
    "lat": 32.20487,
    "lon": -95.85552,
    "name": "Athens"
  },
  {
    "heroes": [
      35,
      162,
      234
    ],
    "id": 5,
    "lat": 30.26715,
    "lon": -97.74306,
    "name": "Austin"
  },
  {
    "heroes": [
      225
    ],
    "id": 6,
    "lat": 31.7382,
    "lon": -99.9473,
    "name": "Ballinger"
  },
  {
    "heroes": [
      39
    ],
    "id": 7,
    "lat": 29.72661,
    "lon": -99.07364,
    "name": "Bandera"
  },
  {
    "heroes": [
      240
    ],
    "id": 8,
    "lat": 29.7355,
    "lon": -94.97742,
    "name": "Baytown"
  },
  {
    "heroes": [
      103,
      215,
      222,
      331
    ],
    "id": 9,
    "lat": 30.08017,
    "lon": -94.12655,
    "name": "Beaumont"
  },
  {
    "heroes": [
      241
    ],
    "id": 10,
    "lat": 32.25039,
    "lon": -101.47873,
    "name": "Big Spring"
  },
  {
    "heroes": [
      26
    ],
    "id": 11,
    "lat": 33.50759,
    "lon": -99.42619,
    "name": "Bomarton"
  },
  {
    "heroes": [
      214
    ],
    "id": 12,
    "lat": 35.66782,
    "lon": -101.39738,
    "name": "Borger"
  },
  {
    "heroes": [
      209
    ],
    "id": 13,
    "lat": 33.1812,
    "lon": -102.27434,
    "name": "Brownfield"
  },
  {
    "heroes": [
      11,
      72,
      300
    ],
    "id": 14,
    "lat": 25.90174,
    "lon": -97.49748,
    "name": "Brownsville"
  },
  {
    "heroes": [
      291
    ],
    "id": 15,
    "lat": 31.70931,
    "lon": -98.99116,
    "name": "Brownwood"
  },
  {
    "heroes": [
      13
    ],
    "id": 16,
    "lat": 30.67436,
    "lon": -96.36996,
    "name": "Bryan"
  },
  {
    "heroes": [
      4
    ],
    "id": 17,
    "lat": 30.7399,
    "lon": -98.43114,
    "name": "Buchanan Dam"
  },
  {
    "heroes": [
      101,
      154
    ],
    "id": 18,
    "lat": 34.98033,
    "lon": -101.9188,
    "name": "Canyon"
  },
  {
    "heroes": [
      320
    ],
    "id": 19,
    "lat": 31.79545,
    "lon": -94.17908,
    "name": "Center"
  },
  {
    "heroes": [
      128,
      310
    ],
    "id": 20,
    "lat": 30.62797,
    "lon": -96.3344,
    "name": "College Station"
  },
  {
    "heroes": [
      31,
      107
    ],
    "id": 21,
    "lat": 30.31187,
    "lon": -95.45605,
    "name": "Conroe"
  },
  {
    "heroes": [
      83,
      124
    ],
    "id": 22,
    "lat": 27.80058,
    "lon": -97.39638,
    "name": "Corpus Christi"
  },
  {
    "heroes": [
      0,
      3,
      5,
      28,
      32,
      36,
      52,
      64,
      70,
      87,
      90,
      94,
      95,
      117,
      148,
      160,
      164,
      191,
      204,
      211,
      213,
      238,
      252,
      256,
      263,
      270,
      277,
      278,
      279,
      292,
      315,
      317,
      321
    ],
    "id": 23,
    "lat": 32.77666,
    "lon": -96.79698,
    "name": "Dallas"
  },
  {
    "heroes": [
      158,
      286,
      297
    ],
    "id": 24,
    "lat": 32.58969,
    "lon": -96.85707,
    "name": "DeSoto"
  },
  {
    "heroes": [
      61
    ],
    "id": 25,
    "lat": 33.75565,
    "lon": -96.53665,
    "name": "Denison"
  },
  {
    "heroes": [
      80,
      261
    ],
    "id": 26,
    "lat": 33.21484,
    "lon": -97.13306,
    "name": "Denton"
  },
  {
    "heroes": [
      8,
      10,
      14,
      18,
      43,
      47,
      50,
      54,
      57,
      58,
      77,
      79,
      81,
      91,
      97,
      99,
      106,
      121,
      127,
      130,
      147,
      159,
      168,
      173,
      176,
      183,
      184,
      188,
      194,
      200,
      201,
      202,
      205,
      206,
      208,
      218,
      221,
      223,
      226,
      229,
      233,
      236,
      243,
      250,
      251,
      275,
      280,
      281,
      282,
      284,
      287,
      288,
      302,
      303,
      306,
      313
    ],
    "id": 27,
    "lat": 31.76187,
    "lon": -106.48502,
    "name": "El Paso"
  },
  {
    "heroes": [
      38
    ],
    "id": 28,
    "lat": 32.32931,
    "lon": -96.62526,
    "name": "Ennis"
  },
  {
    "heroes": [
      227
    ],
    "id": 29,
    "lat": 32.83707,
    "lon": -97.08195,
    "name": "Euless"
  },
  {
    "heroes": [
      324
    ],
    "id": 30,
    "lat": 31.72461,
    "lon": -96.16524,
    "name": "Fairfield"
  },
  {
    "heroes": [
      142
    ],
    "id": 31,
    "lat": 33.01456,
    "lon": -97.09695,
    "name": "Flower Mound"
  },
  {
    "heroes": [
      46,
      63,
      113,
      122,
      133,
      177,
      190,
      219,
      328
    ],
    "id": 32,
    "lat": 32.75548,
    "lon": -97.33076,
    "name": "Fort Worth"
  },
  {
    "heroes": [
      171
    ],
    "id": 33,
    "lat": 28.95413,
    "lon": -95.35966,
    "name": "Freeport"
  },
  {
    "heroes": [
      169
    ],
    "id": 34,
    "lat": 29.52939,
    "lon": -95.20104,
    "name": "Friendswood"
  },
  {
    "heroes": [
      22
    ],
    "id": 35,
    "lat": 28.83135,
    "lon": -99.10134,
    "name": "Frio"
  },
  {
    "heroes": [
      161
    ],
    "id": 36,
    "lat": 33.62594,
    "lon": -97.13334,
    "name": "Gainsville"
  },
  {
    "heroes": [
      41,
      78
    ],
    "id": 37,
    "lat": 29.30134,
    "lon": -94.79769,
    "name": "Galveston"
  },
  {
    "heroes": [
      299
    ],
    "id": 38,
    "lat": 32.91262,
    "lon": -96.63888,
    "name": "Garland"
  },
  {
    "heroes": [
      264
    ],
    "id": 39,
    "lat": 31.43516,
    "lon": -97.74391,
    "name": "Gatesville"
  },
  {
    "heroes": [
      112
    ],
    "id": 40,
    "lat": 33.46899,
    "lon": -96.08858,
    "name": "Gober"
  },
  {
    "heroes": [
      332
    ],
    "id": 41,
    "lat": 33.10705,
    "lon": -98.5895,
    "name": "Graham"
  },
  {
    "heroes": [
      6
    ],
    "id": 42,
    "lat": 32.74596,
    "lon": -96.99778,
    "name": "Grand Prairie"
  },
  {
    "heroes": [
      49
    ],
    "id": 43,
    "lat": 32.44208,
    "lon": -97.79419,
    "name": "Grandbury"
  },
  {
    "heroes": [
      150
    ],
    "id": 44,
    "lat": 32.48925,
    "lon": -94.85206,
    "name": "Gregg"
  },
  {
    "heroes": [
      115
    ],
    "id": 45,
    "lat": 29.578,
    "lon": -98.68974,
    "name": "Helotes"
  },
  {
    "heroes": [
      40
    ],
    "id": 46,
    "lat": 32.15321,
    "lon": -94.79938,
    "name": "Henderson"
  },
  {
    "heroes": [
      239
    ],
    "id": 47,
    "lat": 30.02686,
    "lon": -95.84585,
    "name": "Hockley"
  },
  {
    "heroes": [
      298
    ],
    "id": 48,
    "lat": 33.22829,
    "lon": -95.47778,
    "name": "Hopkins"
  },
  {
    "heroes": [
      96,
      102
    ],
    "id": 49,
    "lat": 30.54215,
    "lon": -98.38827,
    "name": "Horseshoe Bay"
  },
  {
    "heroes": [
      2,
      16,
      19,
      21,
      23,
      27,
      29,
      44,
      55,
      65,
      73,
      74,
      85,
      88,
      92,
      104,
      110,
      116,
      118,
      123,
      144,
      151,
      152,
      163,
      165,
      170,
      172,
      181,
      182,
      189,
      192,
      193,
      197,
      198,
      203,
      207,
      231,
      245,
      254,
      258,
      260,
      265,
      267,
      268,
      269,
      273,
      285,
      293,
      295,
      305
    ],
    "id": 50,
    "lat": 29.76042,
    "lon": -95.3698,
    "name": "Houston"
  },
  {
    "heroes": [
      304,
      325
    ],
    "id": 51,
    "lat": 30.72352,
    "lon": -95.55077,
    "name": "Huntsville"
  },
  {
    "heroes": [
      134
    ],
    "id": 52,
    "lat": 32.82346,
    "lon": -97.17056,
    "name": "Hurst"
  },
  {
    "heroes": [
      108,
      257
    ],
    "id": 53,
    "lat": 32.81401,
    "lon": -96.94889,
    "name": "Irving"
  },
  {
    "heroes": [
      271
    ],
    "id": 54,
    "lat": 32.17793,
    "lon": -94.90077,
    "name": "Joinerville"
  },
  {
    "heroes": [
      59
    ],
    "id": 55,
    "lat": 32.6468,
    "lon": -97.22584,
    "name": "Kennedale"
  },
  {
    "heroes": [
      322
    ],
    "id": 56,
    "lat": 27.51586,
    "lon": -97.8561,
    "name": "Kingsville"
  },
  {
    "heroes": [
      167
    ],
    "id": 57,
    "lat": 28.13945,
    "lon": -97.00554,
    "name": "Lamar"
  },
  {
    "heroes": [
      166,
      274,
      276
    ],
    "id": 58,
    "lat": 27.53056,
    "lon": -99.48032,
    "name": "Laredo"
  },
  {
    "heroes": [
      143
    ],
    "id": 59,
    "lat": 33.04623,
    "lon": -96.99417,
    "name": "Lewisville"
  },
  {
    "heroes": [
      48
    ],
    "id": 60,
    "lat": 30.71102,
    "lon": -94.93298,
    "name": "Livingston"
  },
  {
    "heroes": [
      311
    ],
    "id": 61,
    "lat": 30.75934,
    "lon": -98.67503,
    "name": "Llano"
  },
  {
    "heroes": [
      25
    ],
    "id": 62,
    "lat": 31.38655,
    "lon": -97.21555,
    "name": "Lorena"
  },
  {
    "heroes": [
      132,
      140,
      230,
      255
    ],
    "id": 63,
    "lat": 33.57786,
    "lon": -101.85516,
    "name": "Lubbock"
  },
  {
    "heroes": [
      175,
      314
    ],
    "id": 64,
    "lat": 32.54487,
    "lon": -94.36741,
    "name": "Marshall"
  },
  {
    "heroes": [
      249,
      309
    ],
    "id": 65,
    "lat": 26.2034,
    "lon": -98.23001,
    "name": "McAllen"
  },
  {
    "heroes": [
      42
    ],
    "id": 66,
    "lat": 33.19724,
    "lon": -96.63978,
    "name": "McKinney"
  },
  {
    "heroes": [
      119
    ],
    "id": 67,
    "lat": 31.67988,
    "lon": -96.4822,
    "name": "Mexia"
  },
  {
    "heroes": [
      216
    ],
    "id": 68,
    "lat": 32.48236,
    "lon": -96.99444,
    "name": "Middlothian"
  },
  {
    "heroes": [
      71,
      109,
      149,
      326
    ],
    "id": 69,
    "lat": 31.99734,
    "lon": -102.07791,
    "name": "Midland"
  },
  {
    "heroes": [
      155
    ],
    "id": 70,
    "lat": 31.91794,
    "lon": -94.68104,
    "name": "Mt. Enterprise"
  },
  {
    "heroes": [
      244
    ],
    "id": 71,
    "lat": 33.15678,
    "lon": -94.96826,
    "name": "Mt. Pleasant"
  },
  {
    "heroes": [
      174
    ],
    "id": 72,
    "lat": 34.22646,
    "lon": -102.72382,
    "name": "Muleshoe"
  },
  {
    "heroes": [
      220
    ],
    "id": 73,
    "lat": 31.60351,
    "lon": -94.65548,
    "name": "Nacogdoches"
  },
  {
    "heroes": [
      217
    ],
    "id": 74,
    "lat": 30.38798,
    "lon": -96.08773,
    "name": "Navasota"
  },
  {
    "heroes": [
      145
    ],
    "id": 75,
    "lat": 29.97438,
    "lon": -93.99239,
    "name": "Nederland"
  },
  {
    "heroes": [
      178
    ],
    "id": 76,
    "lat": 31.84568,
    "lon": -102.36764,
    "name": "Odessa"
  },
  {
    "heroes": [
      312
    ],
    "id": 77,
    "lat": 29.56356,
    "lon": -95.28604,
    "name": "Pearland"
  },
  {
    "heroes": [
      262,
      283
    ],
    "id": 78,
    "lat": 33.01984,
    "lon": -96.69888,
    "name": "Plano"
  },
  {
    "heroes": [
      246
    ],
    "id": 79,
    "lat": 32.9315,
    "lon": -95.87135,
    "name": "Point"
  },
  {
    "heroes": [
      228
    ],
    "id": 80,
    "lat": 30.71508,
    "lon": -94.81059,
    "name": "Polk"
  },
  {
    "heroes": [
      232
    ],
    "id": 81,
    "lat": 28.44758,
    "lon": -96.40535,
    "name": "Port O'Connor"
  },
  {
    "heroes": [
      131
    ],
    "id": 82,
    "lat": 33.48348,
    "lon": -94.16417,
    "name": "Red Lick"
  },
  {
    "heroes": [
      296
    ],
    "id": 83,
    "lat": 32.94833,
    "lon": -96.72985,
    "name": "Richardson"
  },
  {
    "heroes": [
      69
    ],
    "id": 84,
    "lat": 29.58218,
    "lon": -95.76078,
    "name": "Richmond"
  },
  {
    "heroes": [
      56
    ],
    "id": 85,
    "lat": 30.65547,
    "lon": -97.00137,
    "name": "Rockdale"
  },
  {
    "heroes": [
      289
    ],
    "id": 86,
    "lat": 28.02057,
    "lon": -97.05443,
    "name": "Rockport"
  },
  {
    "heroes": [
      185
    ],
    "id": 87,
    "lat": 29.55718,
    "lon": -95.80856,
    "name": "Rosenberg"
  },
  {
    "heroes": [
      125
    ],
    "id": 88,
    "lat": 32.85204,
    "lon": -100.46566,
    "name": "Rotan"
  },
  {
    "heroes": [
      186
    ],
    "id": 89,
    "lat": 31.46377,
    "lon": -100.43703,
    "name": "San Angelo"
  },
  {
    "heroes": [
      9,
      53,
      60,
      66,
      67,
      76,
      93,
      98,
      105,
      139,
      294,
      308,
      318,
      319
    ],
    "id": 90,
    "lat": 29.42412,
    "lon": -98.49362,
    "name": "San Antonio"
  },
  {
    "heroes": [
      1
    ],
    "id": 91,
    "lat": 33.36317,
    "lon": -97.1739,
    "name": "Sanger"
  },
  {
    "heroes": [
      30
    ],
    "id": 92,
    "lat": 29.56411,
    "lon": -95.02548,
    "name": "Seabrook"
  },
  {
    "heroes": [
      51
    ],
    "id": 93,
    "lat": 33.63566,
    "lon": -96.60888,
    "name": "Sherman"
  },
  {
    "heroes": [
      195
    ],
    "id": 94,
    "lat": 32.33525,
    "lon": -95.31025,
    "name": "Smith"
  },
  {
    "heroes": [
      34
    ],
    "id": 95,
    "lat": 30.20299,
    "lon": -97.80673,
    "name": "South Austin"
  },
  {
    "heroes": [
      180
    ],
    "id": 96,
    "lat": 33.13844,
    "lon": -95.60106,
    "name": "Sulfur Springs"
  },
  {
    "heroes": [
      224
    ],
    "id": 97,
    "lat": 32.47095,
    "lon": -100.40593,
    "name": "Sweetwater"
  },
  {
    "heroes": [
      247
    ],
    "id": 98,
    "lat": 31.09823,
    "lon": -97.34278,
    "name": "Temple"
  },
  {
    "heroes": [
      196
    ],
    "id": 99,
    "lat": 29.38384,
    "lon": -94.9027,
    "name": "Texas City"
  },
  {
    "heroes": [
      33
    ],
    "id": 100,
    "lat": 30.09716,
    "lon": -95.61605,
    "name": "Tomball"
  },
  {
    "heroes": [
      137,
      138
    ],
    "id": 101,
    "lat": 34.53589,
    "lon": -101.75851,
    "name": "Tulia"
  },
  {
    "heroes": [
      24,
      146,
      259
    ],
    "id": 102,
    "lat": 32.35126,
    "lon": -95.30106,
    "name": "Tyler"
  },
  {
    "heroes": [
      330
    ],
    "id": 103,
    "lat": 29.20968,
    "lon": -99.78616,
    "name": "Uvalde"
  },
  {
    "heroes": [
      111,
      248
    ],
    "id": 104,
    "lat": 31.54933,
    "lon": -97.14666,
    "name": "Waco"
  },
  {
    "heroes": [
      156,
      327
    ],
    "id": 105,
    "lat": 29.31163,
    "lon": -96.10273,
    "name": "Wharton"
  },
  {
    "heroes": [
      187,
      290
    ],
    "id": 106,
    "lat": 33.9137,
    "lon": -98.49338,
    "name": "Wichita Falls"
  },
  {
    "heroes": [
      266
    ],
    "id": 107,
    "lat": 30.16582,
    "lon": -95.46126,
    "name": "Woodlands"
  },
  {
    "heroes": [
      323
    ],
    "id": 108,
    "lat": 33.01512,
    "lon": -96.53887,
    "name": "Wylie"
  },
  {
    "heroes": [
      12
    ],
    "id": 109,
    "lat": 29.28774,
    "lon": -97.15193,
    "name": "Yoakum"
  }
]